kml_input_name,Transliterated names,Name,Standardised transliterated name,standardized_name,author-specific_name,region_name,kura_name,Unclear provincial affiliation,city_type,latitude,longitude,altitude,pushpin,location_certainty,date,descr,id,loc,note,pic,Imperial capital,Provincial Capital,Kura/Sub-Region Capital,Important city,Mint (precious metal),Mint (copper),West Syrian archdiocese,West Syrian diocese,East Syrian archdiocese,East Syrian diocese,Garrison,Qāḍīship,"Marwānid period to Hārūn, first period (c73-180/692-796)",Marwānid period (c.73-132/692-750),Marwān II (127-132/744-750),al-Manṣūr-Hārūn al-Rashīd (ca. 136-193/754-809),"Hārūn, second period (180-193/796-809)",al-Maʾmūn to al-Muʿtaṣim (ca. 198-221/813-836),Sāmarrāʾ period (ca. 221-279/836-892),al-Muʿtaḍid to al-Muqtadir (ca. 279-320/892-932),kura_code,region_code,Comments
الرقة ,al-Raqqa,الرقة ,,,,Jazīra,Diyār Muḍar,,,39.0433742698797,35.9441391808211,0,ylw-pushpin,,,,Modern al-Raqqa ,"Early Islamic al-Raqqa; plan of al-Raqqa in EI2, ""Rakka"" (M. Meinecke).",,,,,,,,x,,,,,,,,x,,x,,x,x,,0,JAZ,"No ʿAbbāsid coinage after 254 H; (Diler, vol. I)."
الرها ,al-Ruhā,الرها ,,,,Jazīra,Diyār Muḍar,,,38.7818831697218,37.1523282487467,0,ylw-pushpin,,,,Modern Urfa,"Remains of the medieval castle, walls built by the ʿAbbasids (photos).",,,,,,,,x,,,,,,,,x,,x,,,,,0,JAZ,"Diler, vol. I."
الموصل,al-Mawṣil,الموصل,,,,al-Mawṣil,(no kura mentioned),,,43.1282596177328,36.3453028552322,0,grn-pushpin,,,,Modern Mosul,Modern Mosul,,,,,,,,x,,,,,,,,x,,x,,,,,0,JAZ,"Almost only copper in Umayyad period, none after 268 H (Diler, vol. II)."
بلد,Balad,بلد,,,,Jazīra,Diyār Rabīʿa,,,42.7390913026871,36.514846394073,0,grn-pushpin,no specific clues for an exact location,,,modern Eskī Muṣil,modern Eskī Muṣil,,,,,,,,x,,,,,,,,x,,x,,,,,0,JAZ,"Copper only in years without silver (155 H, 185 H)(Diler, vol. I); undated coin from Marwānid period (Album, 45)."
حران,Ḥarrān,حران,,,,Jazīra,Diyār Muḍar,,,39.03115033649,36.864761307015,0,ylw-pushpin,,,,Ancient Carrhae; historical site is mostly in ruins today. ,settlement remains (early Islamic Harran),,,,,,,,x,,,,,,,,x,,x,,,,,0,JAZ,"Diler, vol. I."
نصيبين,Naṣībīn,نصيبين,,,,Jazīra,Diyār Rabīʿa,,,41.2143682622358,37.0681779585748,0,grn-pushpin,no specific clues for an exact location,,,Modern Nusaybin,ANE and PL place markers,,,,,,,,x,,,,,,,,x,,x,,x,,,0,JAZ,"No copper after 209 H (Diler, vol. II); only one type, dated 92 H (Album, 46)."