kml_input_name,Transliterated names,Name,Standardised transliterated name,standardized_name,author-specific_name,region_name,kura_name,Unclear provincial affiliation,city_type,latitude,longitude,altitude,pushpin,location_certainty,date,descr,id,loc,note,pic,Imperial capital,Provincial Capital,Kura/Sub-Region Capital,Important city,Mint (precious metal),Mint (copper),West Syrian archdiocese,West Syrian diocese,East Syrian archdiocese,East Syrian diocese,Garrison,Qāḍīship,"Marwānid period to Hārūn, first period (c73-180/692-796)",Marwānid period (c.73-132/692-750),Marwān II (127-132/744-750),al-Manṣūr-Hārūn al-Rashīd (ca. 136-193/754-809),"Hārūn, second period (180-193/796-809)",al-Maʾmūn to al-Muʿtaṣim (ca. 198-221/813-836),Sāmarrāʾ period (ca. 221-279/836-892),al-Muʿtaḍid to al-Muqtadir (ca. 279-320/892-932),kura_code,region_code,Comments
الرقة ,al-Raqqa,الرقة ,,,,Jazīra,Diyār Muḍar,,,39.0433742698797,35.9441391808211,0,ylw-pushpin,,,,Modern al-Raqqa ,"Early Islamic al-Raqqa; plan of al-Raqqa in EI2, ""Rakka"" (M. Meinecke).",,,,,,,x,,,,,,,,,,,x,,x,x,x,0,JAZ,"No ʿAbbāsid coinage after 254 H; first gold issue from 279 H (Ṭūlūnid) (Diler, vol. I)."
الموصل,al-Mawṣil,الموصل,,,,Jazīra,Diyar Rabīʿa,,,43.1282596177328,36.3453028552322,0,grn-pushpin,,,,Modern Mosul,Modern Mosul,,,,,,,x,,,,,,,,,,,,,,x,x,0,JAZ,"Almost only copper in Umayyad period; gold intermittently from 263 H(Diler, vol. II); silver only in 82-83 (Album, 41)."
بلد,Balad,بلد,,,,Jazīra,Diyār Rabīʿa,,,42.7390913026871,36.514846394073,0,grn-pushpin,no specific clues for an exact location,,,modern Eskī Muṣil,modern Eskī Muṣil,,,,,,,x,,,,,,,,,,,x,,,x,x,0,JAZ,"No gold (Diler, vol. I); 263 H from Album, 49."
حران,Ḥarrān,حران,,,,Jazīra,Diyār Muḍar,,,39.03115033649,36.864761307015,0,ylw-pushpin,,,,Ancient Carrhae; historical site is mostly in ruins today. ,settlement remains (early Islamic Harran),,,,,,,x,,,,,,,,,x,,,,,x,x,0,JAZ,"Gold only under Ṭūlūnids and later ʿAbbāsids (Diler, vol. I); silver in 80, 82, 87-89 (Album, 40)."
رأس العين,Raʾs al-ʿAyn,رأس العين,,,,Jazīra,Diyār Rabīʿa,,,40.0720041806922,36.850030077745,0,grn-pushpin,no specific clues for an exact location,,,modern Raʾs al-ʿAyn,GE place marker,,,,,,,x,,,,,,,,,,,,,,x,x,0,JAZ,"Gold old in 290 H (Diler, vol. I)."
رحبة ملك إبن طوق ,Raḥbat Malik b. Ṭawq,رحبة ملك إبن طوق ,,,,Jazīra,Ṭarīq al-Furāt,,,40.453333,35.018333,0,blu-pushpin,no specific clues for an exact location,,,"Corresponds roughly to modern al-Mayadin (EI2, Honigmann)","Modern town of al-Mayādīn, identified by Bianquis (""Reflexion… Rahba-Mayadin"") as the site of Rahbat Malik.",,,,,,,x,,,,,,,,,,,,,,x,x,0,JAZ,"No copper; no gold after 295 H (Diler, vol. I)"
قرقيسية,Qarqīsīya,قرقيسية,,,,Jazīra,Ṭarīq al-Furāt,,,40.4267494282369,35.1563552628567,0,grn-pushpin,no specific clues for an exact location,,,"Ancient Circesium, modern al-Busayra",al-Busayra,,,,,,,x,,,,,,,,,,,,,,x,,0,JAZ,"ʿUqaylid coins, gold and silver (Diler, vol. II)."
ماردين,Mārdīn,ماردين,,,,Jazīra,Diyār Rabīʿa,,,40.7362354515768,37.3142817746861,0,grn-pushpin,no specific clues for an exact location,,,Modern Mardin,Photos of old town/remains,,,,,,,x,,,,,,,,,,,,,,,x,0,JAZ,"One issue (gold) in 312 H (Diler, vol. II)"
نصيبين,Naṣībīn,نصيبين,,,,Jazīra,Diyār Rabīʿa,,,41.2143682622358,37.0681779585748,0,grn-pushpin,no specific clues for an exact location,,,Modern Nusaybin,ANE and PL place markers,,,,,,,x,,,,,,,,,,,,,,x,x,0,JAZ,"Silver from 251 H; gold from 263 H (Diler, vol. II). "